{"type":"FeatureCollection","meta":{"source":"osm+seed","note_fr":"Enseignes-cibles (poulet/crousti). Identification par marque OpenStreetMap + liste de référence. Couverture partielle — à compléter."},"features":[{"type":"Feature","geometry":{"type":"Point","coordinates":[2.334,48.9056]},"properties":{"name":"Master Poulet Saint-Ouen","brand":"master_poulet","code_commune":"93070","nom_commune":"Saint-Ouen-sur-Seine","provenance":"seed_press","match_confidence":"seed","opening_date":{"days":20554}}},{"type":"Feature","geometry":{"type":"Point","coordinates":[2.3567939,48.8307708]},"properties":{"name":"KFC","brand":"kfc","code_commune":"75113","nom_commune":"Gobelins","provenance":"osm_brand","match_confidence":"osm_brand","opening_date":null}},{"type":"Feature","geometry":{"type":"Point","coordinates":[2.3622183,48.8676948]},"properties":{"name":"KFC","brand":"kfc","code_commune":"75103","nom_commune":"Temple","provenance":"osm_brand","match_confidence":"osm_brand","opening_date":null}},{"type":"Feature","geometry":{"type":"Point","coordinates":[2.3836164,48.8670613]},"properties":{"name":"KFC","brand":"kfc","code_commune":"75120","nom_commune":"Ménilmontant","provenance":"osm_brand","match_confidence":"osm_brand","opening_date":null}},{"type":"Feature","geometry":{"type":"Point","coordinates":[2.2962718,48.837025]},"properties":{"name":"KFC","brand":"kfc","code_commune":"75115","nom_commune":"Vaugirard","provenance":"osm_brand","match_confidence":"osm_brand","opening_date":null}},{"type":"Feature","geometry":{"type":"Point","coordinates":[2.349172,48.8607571]},"properties":{"name":"KFC","brand":"kfc","code_commune":"75101","nom_commune":"Louvre","provenance":"osm_brand","match_confidence":"osm_brand","opening_date":null}},{"type":"Feature","geometry":{"type":"Point","coordinates":[2.4764121,48.8839888]},"properties":{"name":"KFC","brand":"kfc","code_commune":"93064","nom_commune":"Rosny-sous-Bois","provenance":"osm_brand","match_confidence":"osm_brand","opening_date":null}},{"type":"Feature","geometry":{"type":"Point","coordinates":[2.4438729,48.863368]},"properties":{"name":"Chicken Spot","brand":"chicken_autre","code_commune":"93048","nom_commune":"Montreuil","provenance":"osm_brand","match_confidence":"osm_brand","opening_date":null}},{"type":"Feature","geometry":{"type":"Point","coordinates":[2.244015,48.8339802]},"properties":{"name":"KFC","brand":"kfc","code_commune":"92012","nom_commune":"Boulogne-Billancourt","provenance":"osm_brand","match_confidence":"osm_brand","opening_date":null}},{"type":"Feature","geometry":{"type":"Point","coordinates":[2.328396,48.8835944]},"properties":{"name":"KFC","brand":"kfc","code_commune":"75109","nom_commune":"Opéra","provenance":"osm_brand","match_confidence":"osm_brand","opening_date":null}},{"type":"Feature","geometry":{"type":"Point","coordinates":[2.2434298,48.8340159]},"properties":{"name":"Master Poulet","brand":"master_poulet","code_commune":"92012","nom_commune":"Boulogne-Billancourt","provenance":"osm_brand","match_confidence":"osm_brand","opening_date":null}},{"type":"Feature","geometry":{"type":"Point","coordinates":[2.4876796,48.9066047]},"properties":{"name":"KFC","brand":"kfc","code_commune":"93010","nom_commune":"Bondy","provenance":"osm_brand","match_confidence":"osm_brand","opening_date":null}},{"type":"Feature","geometry":{"type":"Point","coordinates":[2.3261743,48.827741]},"properties":{"name":"KFC","brand":"kfc","code_commune":"75114","nom_commune":"Observatoire","provenance":"osm_brand","match_confidence":"osm_brand","opening_date":null}},{"type":"Feature","geometry":{"type":"Point","coordinates":[2.328481,48.7980217]},"properties":{"name":"Master poulet","brand":"master_poulet","code_commune":"94016","nom_commune":"Cachan","provenance":"osm_brand","match_confidence":"osm_brand","opening_date":null}},{"type":"Feature","geometry":{"type":"Point","coordinates":[2.3540691,48.8695686]},"properties":{"name":"KFC","brand":"kfc","code_commune":"75110","nom_commune":"Entrepôt","provenance":"osm_brand","match_confidence":"osm_brand","opening_date":null}},{"type":"Feature","geometry":{"type":"Point","coordinates":[2.506205,48.752919]},"properties":{"name":"Chicken Spot","brand":"chicken_autre","code_commune":"94004","nom_commune":"Boissy-Saint-Léger","provenance":"osm_brand","match_confidence":"osm_brand","opening_date":null}},{"type":"Feature","geometry":{"type":"Point","coordinates":[2.3441141,48.8977404]},"properties":{"name":"KFC","brand":"kfc","code_commune":"75118","nom_commune":"Buttes-Montmartre","provenance":"osm_brand","match_confidence":"osm_brand","opening_date":null}},{"type":"Feature","geometry":{"type":"Point","coordinates":[2.3425595,48.8496939]},"properties":{"name":"KFC","brand":"kfc","code_commune":"75105","nom_commune":"Panthéon","provenance":"osm_brand","match_confidence":"osm_brand","opening_date":null}},{"type":"Feature","geometry":{"type":"Point","coordinates":[2.3601961,48.8151292]},"properties":{"name":"Chicken Street","brand":"chicken_autre","code_commune":"94043","nom_commune":"Le Kremlin-Bicêtre","provenance":"osm_brand","match_confidence":"osm_brand","opening_date":null}},{"type":"Feature","geometry":{"type":"Point","coordinates":[2.3569695,48.8262851]},"properties":{"name":"KFC","brand":"kfc","code_commune":"75113","nom_commune":"Gobelins","provenance":"osm_brand","match_confidence":"osm_brand","opening_date":null}},{"type":"Feature","geometry":{"type":"Point","coordinates":[2.3454077,48.8527933]},"properties":{"name":"Chicken Spot","brand":"chicken_autre","code_commune":"75105","nom_commune":"Panthéon","provenance":"osm_brand","match_confidence":"osm_brand","opening_date":null}},{"type":"Feature","geometry":{"type":"Point","coordinates":[2.2917331,48.80568]},"properties":{"name":"Master Poulet","brand":"master_poulet","code_commune":"92020","nom_commune":"Châtillon","provenance":"osm_brand","match_confidence":"osm_brand","opening_date":null}},{"type":"Feature","geometry":{"type":"Point","coordinates":[2.3989273,48.8174493]},"properties":{"name":"Chicken Street","brand":"chicken_autre","code_commune":"94041","nom_commune":"Ivry-sur-Seine","provenance":"osm_brand","match_confidence":"osm_brand","opening_date":null}},{"type":"Feature","geometry":{"type":"Point","coordinates":[2.3404257,48.9358809]},"properties":{"name":"Chicken Spot","brand":"chicken_autre","code_commune":"93039","nom_commune":"L'Île-Saint-Denis","provenance":"osm_brand","match_confidence":"osm_brand","opening_date":null}},{"type":"Feature","geometry":{"type":"Point","coordinates":[2.3628072,48.9239386]},"properties":{"name":"KFC","brand":"kfc","code_commune":"93066","nom_commune":"Saint-Denis","provenance":"osm_brand","match_confidence":"osm_brand","opening_date":null}},{"type":"Feature","geometry":{"type":"Point","coordinates":[2.3439392,48.9088293]},"properties":{"name":"Chicken Street","brand":"chicken_autre","code_commune":"93070","nom_commune":"Saint-Ouen-sur-Seine","provenance":"osm_brand","match_confidence":"osm_brand","opening_date":null}},{"type":"Feature","geometry":{"type":"Point","coordinates":[2.3563249,48.8795523]},"properties":{"name":"KFC","brand":"kfc","code_commune":"75110","nom_commune":"Entrepôt","provenance":"osm_brand","match_confidence":"osm_brand","opening_date":null}},{"type":"Feature","geometry":{"type":"Point","coordinates":[2.3263857,48.8861609]},"properties":{"name":"Chicken Street","brand":"chicken_autre","code_commune":"75118","nom_commune":"Buttes-Montmartre","provenance":"osm_brand","match_confidence":"osm_brand","opening_date":null}},{"type":"Feature","geometry":{"type":"Point","coordinates":[2.2498914,48.8358016]},"properties":{"name":"Chicken Street","brand":"chicken_autre","code_commune":"92012","nom_commune":"Boulogne-Billancourt","provenance":"osm_brand","match_confidence":"osm_brand","opening_date":null}},{"type":"Feature","geometry":{"type":"Point","coordinates":[2.3477231,48.8594097]},"properties":{"name":"Chicken Street","brand":"chicken_autre","code_commune":"75101","nom_commune":"Louvre","provenance":"osm_brand","match_confidence":"osm_brand","opening_date":null}},{"type":"Feature","geometry":{"type":"Point","coordinates":[2.3327062,48.9080523]},"properties":{"name":"Chicken Spot","brand":"chicken_autre","code_commune":"93070","nom_commune":"Saint-Ouen-sur-Seine","provenance":"osm_brand","match_confidence":"osm_brand","opening_date":null}},{"type":"Feature","geometry":{"type":"Point","coordinates":[2.5101861,48.8234439]},"properties":{"name":"Chicken Spot","brand":"chicken_autre","code_commune":"94017","nom_commune":"Champigny-sur-Marne","provenance":"osm_brand","match_confidence":"osm_brand","opening_date":null}},{"type":"Feature","geometry":{"type":"Point","coordinates":[2.3574103,48.876523]},"properties":{"name":"KFC","brand":"kfc","code_commune":"75110","nom_commune":"Entrepôt","provenance":"osm_brand","match_confidence":"osm_brand","opening_date":null}},{"type":"Feature","geometry":{"type":"Point","coordinates":[2.3989364,48.8976287]},"properties":{"name":"Chicken Spot","brand":"chicken_autre","code_commune":"93055","nom_commune":"Pantin","provenance":"osm_brand","match_confidence":"osm_brand","opening_date":null}},{"type":"Feature","geometry":{"type":"Point","coordinates":[2.3498892,48.8872233]},"properties":{"name":"KFC","brand":"kfc","code_commune":"75118","nom_commune":"Buttes-Montmartre","provenance":"osm_brand","match_confidence":"osm_brand","opening_date":null}},{"type":"Feature","geometry":{"type":"Point","coordinates":[2.3498339,48.8893465]},"properties":{"name":"Chicken spot","brand":"chicken_autre","code_commune":"75118","nom_commune":"Buttes-Montmartre","provenance":"osm_brand","match_confidence":"osm_brand","opening_date":null}},{"type":"Feature","geometry":{"type":"Point","coordinates":[2.327798,48.7530411]},"properties":{"name":"Chicken Spot","brand":"chicken_autre","code_commune":"94034","nom_commune":"Fresnes","provenance":"osm_brand","match_confidence":"osm_brand","opening_date":null}},{"type":"Feature","geometry":{"type":"Point","coordinates":[2.3720856,48.8539503]},"properties":{"name":"Chicken Spot","brand":"chicken_autre","code_commune":"75111","nom_commune":"Popincourt","provenance":"osm_brand","match_confidence":"osm_brand","opening_date":null}},{"type":"Feature","geometry":{"type":"Point","coordinates":[2.3840215,48.9308905]},"properties":{"name":"Chicken Spot","brand":"chicken_autre","code_commune":"93027","nom_commune":"La Courneuve","provenance":"osm_brand","match_confidence":"osm_brand","opening_date":null}},{"type":"Feature","geometry":{"type":"Point","coordinates":[2.3623005,48.8112501]},"properties":{"name":"KFC","brand":"kfc","code_commune":"94043","nom_commune":"Le Kremlin-Bicêtre","provenance":"osm_brand","match_confidence":"osm_brand","opening_date":null}},{"type":"Feature","geometry":{"type":"Point","coordinates":[2.5256214,48.882568]},"properties":{"name":"Chicken Street","brand":"chicken_autre","code_commune":"93077","nom_commune":"Villemomble","provenance":"osm_brand","match_confidence":"osm_brand","opening_date":null}},{"type":"Feature","geometry":{"type":"Point","coordinates":[2.3338095,48.9036371]},"properties":{"name":"Chicken Spot","brand":"chicken_autre","code_commune":"93070","nom_commune":"Saint-Ouen-sur-Seine","provenance":"osm_brand","match_confidence":"osm_brand","opening_date":null}},{"type":"Feature","geometry":{"type":"Point","coordinates":[2.514282,48.8525702]},"properties":{"name":"Chicken House","brand":"chicken_autre","code_commune":"93049","nom_commune":"Neuilly-Plaisance","provenance":"osm_brand","match_confidence":"osm_brand","opening_date":null}},{"type":"Feature","geometry":{"type":"Point","coordinates":[2.4652001,48.7355263]},"properties":{"name":"Chicken Spot","brand":"chicken_autre","code_commune":"94078","nom_commune":"Villeneuve-Saint-Georges","provenance":"osm_brand","match_confidence":"osm_brand","opening_date":null}},{"type":"Feature","geometry":{"type":"Point","coordinates":[2.510573,48.8219208]},"properties":{"name":"Master Poulet","brand":"master_poulet","code_commune":"94017","nom_commune":"Champigny-sur-Marne","provenance":"osm_brand","match_confidence":"osm_brand","opening_date":null}},{"type":"Feature","geometry":{"type":"Point","coordinates":[2.307334,48.8171314]},"properties":{"name":"Chicken Street","brand":"chicken_autre","code_commune":"92049","nom_commune":"Montrouge","provenance":"osm_brand","match_confidence":"osm_brand","opening_date":null}},{"type":"Feature","geometry":{"type":"Point","coordinates":[2.4791273,48.8771464]},"properties":{"name":"KFC","brand":"kfc","code_commune":"93064","nom_commune":"Rosny-sous-Bois","provenance":"osm_brand","match_confidence":"osm_brand","opening_date":null}},{"type":"Feature","geometry":{"type":"Point","coordinates":[2.3554945,48.7797474]},"properties":{"name":"Chicken Spot","brand":"chicken_autre","code_commune":"94076","nom_commune":"Villejuif","provenance":"osm_brand","match_confidence":"osm_brand","opening_date":null}},{"type":"Feature","geometry":{"type":"Point","coordinates":[2.3588448,48.8750626]},"properties":{"name":"Chicken Street","brand":"chicken_autre","code_commune":"75110","nom_commune":"Entrepôt","provenance":"osm_brand","match_confidence":"osm_brand","opening_date":null}},{"type":"Feature","geometry":{"type":"Point","coordinates":[2.3685541,48.8542417]},"properties":{"name":"KFC","brand":"kfc","code_commune":"75104","nom_commune":"Hôtel-de-Ville","provenance":"osm_brand","match_confidence":"osm_brand","opening_date":null}},{"type":"Feature","geometry":{"type":"Point","coordinates":[2.4247906,48.8936206]},"properties":{"name":"Chicken","brand":"poulet_autre","code_commune":"93055","nom_commune":"Pantin","provenance":"osm_brand","match_confidence":"osm_brand","opening_date":null}},{"type":"Feature","geometry":{"type":"Point","coordinates":[2.5048687,48.9041332]},"properties":{"name":"Chicken Spot","brand":"chicken_autre","code_commune":"93057","nom_commune":"Les Pavillons-sous-Bois","provenance":"osm_brand","match_confidence":"osm_brand","opening_date":null}},{"type":"Feature","geometry":{"type":"Point","coordinates":[2.3007717,48.9069921]},"properties":{"name":"Chicken Street","brand":"chicken_autre","code_commune":"92024","nom_commune":"Clichy","provenance":"osm_brand","match_confidence":"osm_brand","opening_date":null}},{"type":"Feature","geometry":{"type":"Point","coordinates":[2.3552474,48.9301578]},"properties":{"name":"Master Poulet","brand":"master_poulet","code_commune":"93066","nom_commune":"Saint-Denis","provenance":"osm_brand","match_confidence":"osm_brand","opening_date":null}},{"type":"Feature","geometry":{"type":"Point","coordinates":[2.4558629,48.8926543]},"properties":{"name":"Chicken spot","brand":"chicken_autre","code_commune":"93053","nom_commune":"Noisy-le-Sec","provenance":"osm_brand","match_confidence":"osm_brand","opening_date":null}},{"type":"Feature","geometry":{"type":"Point","coordinates":[2.3167976,48.901556]},"properties":{"name":"Chicken House","brand":"chicken_autre","code_commune":"92024","nom_commune":"Clichy","provenance":"osm_brand","match_confidence":"osm_brand","opening_date":null}},{"type":"Feature","geometry":{"type":"Point","coordinates":[2.4425851,48.8612669]},"properties":{"name":"KFC","brand":"kfc","code_commune":"93048","nom_commune":"Montreuil","provenance":"osm_brand","match_confidence":"osm_brand","opening_date":null}},{"type":"Feature","geometry":{"type":"Point","coordinates":[2.5557968,48.9005902]},"properties":{"name":"Chicken street","brand":"chicken_autre","code_commune":"93047","nom_commune":"Montfermeil","provenance":"osm_brand","match_confidence":"osm_brand","opening_date":null}},{"type":"Feature","geometry":{"type":"Point","coordinates":[2.379405,48.817117]},"properties":{"name":"Master Poulet","brand":"master_poulet","code_commune":"94041","nom_commune":"Ivry-sur-Seine","provenance":"osm_brand","match_confidence":"osm_brand","opening_date":null}},{"type":"Feature","geometry":{"type":"Point","coordinates":[2.3826548,48.9130656]},"properties":{"name":"Chicken Spot","brand":"chicken_autre","code_commune":"93001","nom_commune":"Aubervilliers","provenance":"osm_brand","match_confidence":"osm_brand","opening_date":null}},{"type":"Feature","geometry":{"type":"Point","coordinates":[2.3821937,48.8667328]},"properties":{"name":"Master Poulet","brand":"master_poulet","code_commune":"75111","nom_commune":"Popincourt","provenance":"osm_brand","match_confidence":"osm_brand","opening_date":null}},{"type":"Feature","geometry":{"type":"Point","coordinates":[2.3405234,48.8720784]},"properties":{"name":"KFC","brand":"kfc","code_commune":"75109","nom_commune":"Opéra","provenance":"osm_brand","match_confidence":"osm_brand","opening_date":null}},{"type":"Feature","geometry":{"type":"Point","coordinates":[2.3445407,48.8621874]},"properties":{"name":"KFC","brand":"kfc","code_commune":"75101","nom_commune":"Louvre","provenance":"osm_brand","match_confidence":"osm_brand","opening_date":null}},{"type":"Feature","geometry":{"type":"Point","coordinates":[2.3596919,48.8941068]},"properties":{"name":"Chicken Street","brand":"chicken_autre","code_commune":"75118","nom_commune":"Buttes-Montmartre","provenance":"osm_brand","match_confidence":"osm_brand","opening_date":null}},{"type":"Feature","geometry":{"type":"Point","coordinates":[2.325758,48.8752958]},"properties":{"name":"KFC","brand":"kfc","code_commune":"75108","nom_commune":"Élysée","provenance":"osm_brand","match_confidence":"osm_brand","opening_date":null}},{"type":"Feature","geometry":{"type":"Point","coordinates":[2.4030213,48.891074]},"properties":{"name":"Chicken spot","brand":"chicken_autre","code_commune":"93055","nom_commune":"Pantin","provenance":"osm_brand","match_confidence":"osm_brand","opening_date":null}},{"type":"Feature","geometry":{"type":"Point","coordinates":[2.3675738,48.782663]},"properties":{"name":"KFC","brand":"kfc","code_commune":"94076","nom_commune":"Villejuif","provenance":"osm_brand","match_confidence":"osm_brand","opening_date":null}},{"type":"Feature","geometry":{"type":"Point","coordinates":[2.3471768,48.9362942]},"properties":{"name":"Chicken Spot","brand":"chicken_autre","code_commune":"93066","nom_commune":"Saint-Denis","provenance":"osm_brand","match_confidence":"osm_brand","opening_date":null}},{"type":"Feature","geometry":{"type":"Point","coordinates":[2.3576305,48.9474036]},"properties":{"name":"ChickenStreet","brand":"chicken_autre","code_commune":"93066","nom_commune":"Saint-Denis","provenance":"osm_brand","match_confidence":"osm_brand","opening_date":null}},{"type":"Feature","geometry":{"type":"Point","coordinates":[2.362047,48.812012]},"properties":{"name":"Chicken Spot","brand":"chicken_autre","code_commune":"94043","nom_commune":"Le Kremlin-Bicêtre","provenance":"osm_brand","match_confidence":"osm_brand","opening_date":null}},{"type":"Feature","geometry":{"type":"Point","coordinates":[2.3804511,48.8873286]},"properties":{"name":"Chicken Street","brand":"chicken_autre","code_commune":"75119","nom_commune":"Buttes-Chaumont","provenance":"osm_brand","match_confidence":"osm_brand","opening_date":null}},{"type":"Feature","geometry":{"type":"Point","coordinates":[2.2739811,48.926104]},"properties":{"name":"Chicken Spot","brand":"chicken_autre","code_commune":"92004","nom_commune":"Asnières-sur-Seine","provenance":"osm_brand","match_confidence":"osm_brand","opening_date":null}},{"type":"Feature","geometry":{"type":"Point","coordinates":[2.3380928,48.8825047]},"properties":{"name":"KFC","brand":"kfc","code_commune":"75118","nom_commune":"Buttes-Montmartre","provenance":"osm_brand","match_confidence":"osm_brand","opening_date":null}},{"type":"Feature","geometry":{"type":"Point","coordinates":[2.4217619,48.9188145]},"properties":{"name":"KFC","brand":"kfc","code_commune":"93029","nom_commune":"Drancy","provenance":"osm_brand","match_confidence":"osm_brand","opening_date":null}},{"type":"Feature","geometry":{"type":"Point","coordinates":[2.3603026,48.815405]},"properties":{"name":"Master Poulet","brand":"master_poulet","code_commune":"94043","nom_commune":"Le Kremlin-Bicêtre","provenance":"osm_brand","match_confidence":"osm_brand","opening_date":null}},{"type":"Feature","geometry":{"type":"Point","coordinates":[2.4901504,48.861089]},"properties":{"name":"Master Poulet","brand":"master_poulet","code_commune":"93064","nom_commune":"Rosny-sous-Bois","provenance":"osm_brand","match_confidence":"osm_brand","opening_date":null}},{"type":"Feature","geometry":{"type":"Point","coordinates":[2.3567084,48.8762651]},"properties":{"name":"Master Poulet","brand":"master_poulet","code_commune":"75110","nom_commune":"Entrepôt","provenance":"osm_brand","match_confidence":"osm_brand","opening_date":null}},{"type":"Feature","geometry":{"type":"Point","coordinates":[2.3399375,48.9511335]},"properties":{"name":"Chicken Spot","brand":"chicken_autre","code_commune":"93079","nom_commune":"Villetaneuse","provenance":"osm_brand","match_confidence":"osm_brand","opening_date":null}},{"type":"Feature","geometry":{"type":"Point","coordinates":[2.2803944,48.9191699]},"properties":{"name":"Master Poulet","brand":"master_poulet","code_commune":"92009","nom_commune":"Bois-Colombes","provenance":"osm_brand","match_confidence":"osm_brand","opening_date":null}},{"type":"Feature","geometry":{"type":"Point","coordinates":[2.3133104,48.9100015]},"properties":{"name":"Chicken Spot","brand":"chicken_autre","code_commune":"92024","nom_commune":"Clichy","provenance":"osm_brand","match_confidence":"osm_brand","opening_date":null}},{"type":"Feature","geometry":{"type":"Point","coordinates":[2.2844044,48.9065265]},"properties":{"name":"Master Poulet","brand":"master_poulet","code_commune":"92004","nom_commune":"Asnières-sur-Seine","provenance":"osm_brand","match_confidence":"osm_brand","opening_date":null}},{"type":"Feature","geometry":{"type":"Point","coordinates":[2.2402531,48.8919059]},"properties":{"name":"KFC","brand":"kfc","code_commune":"92062","nom_commune":"Puteaux","provenance":"osm_brand","match_confidence":"osm_brand","opening_date":null}},{"type":"Feature","geometry":{"type":"Point","coordinates":[2.429532,48.8935573]},"properties":{"name":"KFC","brand":"kfc","code_commune":"93063","nom_commune":"Romainville","provenance":"osm_brand","match_confidence":"osm_brand","opening_date":null}},{"type":"Feature","geometry":{"type":"Point","coordinates":[2.4243672,48.8558453]},"properties":{"name":"Master Poulet","brand":"master_poulet","code_commune":"93048","nom_commune":"Montreuil","provenance":"osm_brand","match_confidence":"osm_brand","opening_date":null}},{"type":"Feature","geometry":{"type":"Point","coordinates":[2.3603054,48.8153911]},"properties":{"name":"Master Poulet","brand":"master_poulet","code_commune":"94043","nom_commune":"Le Kremlin-Bicêtre","provenance":"osm_brand","match_confidence":"osm_brand","opening_date":null}},{"type":"Feature","geometry":{"type":"Point","coordinates":[2.4201247,48.8702452]},"properties":{"name":"Chicken Spot","brand":"chicken_autre","code_commune":"93006","nom_commune":"Bagnolet","provenance":"osm_brand","match_confidence":"osm_brand","opening_date":null}},{"type":"Feature","geometry":{"type":"Point","coordinates":[2.4571518,48.7795583]},"properties":{"name":"Chik’Chill","brand":"chik_chill","code_commune":"94028","nom_commune":"Créteil","provenance":"osm_brand","match_confidence":"osm_brand","opening_date":null}},{"type":"Feature","geometry":{"type":"Point","coordinates":[2.4569206,48.7795899]},"properties":{"name":"KFC","brand":"kfc","code_commune":"94028","nom_commune":"Créteil","provenance":"osm_brand","match_confidence":"osm_brand","opening_date":null}},{"type":"Feature","geometry":{"type":"Point","coordinates":[2.3570357,48.8989168]},"properties":{"name":null,"brand":"poulet_autre","code_commune":"75118","nom_commune":"Buttes-Montmartre","provenance":"osm_brand","match_confidence":"osm_brand","opening_date":null}},{"type":"Feature","geometry":{"type":"Point","coordinates":[2.4023271,48.8136885]},"properties":{"name":"Chicken spot","brand":"chicken_autre","code_commune":"94041","nom_commune":"Ivry-sur-Seine","provenance":"osm_brand","match_confidence":"osm_brand","opening_date":null}},{"type":"Feature","geometry":{"type":"Point","coordinates":[2.4184439,48.8804037]},"properties":{"name":"Chicken Street","brand":"chicken_autre","code_commune":"93045","nom_commune":"Les Lilas","provenance":"osm_brand","match_confidence":"osm_brand","opening_date":null}},{"type":"Feature","geometry":{"type":"Point","coordinates":[2.3063078,48.9553097]},"properties":{"name":"Chicken Spot","brand":"chicken_autre","code_commune":"93031","nom_commune":"Épinay-sur-Seine","provenance":"osm_brand","match_confidence":"osm_brand","opening_date":null}},{"type":"Feature","geometry":{"type":"Point","coordinates":[2.3428739,48.9496786]},"properties":{"name":"KFC","brand":"kfc","code_commune":"93079","nom_commune":"Villetaneuse","provenance":"osm_brand","match_confidence":"osm_brand","opening_date":null}},{"type":"Feature","geometry":{"type":"Point","coordinates":[2.4349299,48.9126155]},"properties":{"name":"KFC","brand":"kfc","code_commune":"93008","nom_commune":"Bobigny","provenance":"osm_brand","match_confidence":"osm_brand","opening_date":null}},{"type":"Feature","geometry":{"type":"Point","coordinates":[2.5463305,48.8352105]},"properties":{"name":"KFC","brand":"kfc","code_commune":"94079","nom_commune":"Villiers-sur-Marne","provenance":"osm_brand","match_confidence":"osm_brand","opening_date":null}},{"type":"Feature","geometry":{"type":"Point","coordinates":[2.4906415,48.7702065]},"properties":{"name":"KFC","brand":"kfc","code_commune":"94011","nom_commune":"Bonneuil-sur-Marne","provenance":"osm_brand","match_confidence":"osm_brand","opening_date":null}},{"type":"Feature","geometry":{"type":"Point","coordinates":[2.5057986,48.815394]},"properties":{"name":"Chicken Street","brand":"chicken_autre","code_commune":"94017","nom_commune":"Champigny-sur-Marne","provenance":"osm_brand","match_confidence":"osm_brand","opening_date":null}},{"type":"Feature","geometry":{"type":"Point","coordinates":[2.5602248,48.9568119]},"properties":{"name":"KFC","brand":"kfc","code_commune":"93078","nom_commune":"Villepinte","provenance":"osm_brand","match_confidence":"osm_brand","opening_date":null}},{"type":"Feature","geometry":{"type":"Point","coordinates":[2.2493855,48.7842025]},"properties":{"name":"KFC","brand":"kfc","code_commune":"92023","nom_commune":"Clamart","provenance":"osm_brand","match_confidence":"osm_brand","opening_date":null}},{"type":"Feature","geometry":{"type":"Point","coordinates":[2.3724669,48.7566701]},"properties":{"name":"KFC","brand":"kfc","code_commune":"94073","nom_commune":"Thiais","provenance":"osm_brand","match_confidence":"osm_brand","opening_date":null}},{"type":"Feature","geometry":{"type":"Point","coordinates":[2.5212195,48.8541095]},"properties":{"name":"KFC","brand":"kfc","code_commune":"93050","nom_commune":"Neuilly-sur-Marne","provenance":"osm_brand","match_confidence":"osm_brand","opening_date":null}},{"type":"Feature","geometry":{"type":"Point","coordinates":[2.329319,48.7546473]},"properties":{"name":"KFC","brand":"kfc","code_commune":"94034","nom_commune":"Fresnes","provenance":"osm_brand","match_confidence":"osm_brand","opening_date":null}},{"type":"Feature","geometry":{"type":"Point","coordinates":[2.4373908,48.7798308]},"properties":{"name":"KFC","brand":"kfc","code_commune":"94028","nom_commune":"Créteil","provenance":"osm_brand","match_confidence":"osm_brand","opening_date":null}},{"type":"Feature","geometry":{"type":"Point","coordinates":[2.4872181,48.9508242]},"properties":{"name":"KFC","brand":"kfc","code_commune":"93005","nom_commune":"Aulnay-sous-Bois","provenance":"osm_brand","match_confidence":"osm_brand","opening_date":null}},{"type":"Feature","geometry":{"type":"Point","coordinates":[2.296901,48.8919186]},"properties":{"name":"KFC","brand":"kfc","code_commune":"92044","nom_commune":"Levallois-Perret","provenance":"osm_brand","match_confidence":"osm_brand","opening_date":null}},{"type":"Feature","geometry":{"type":"Point","coordinates":[2.3286651,48.9249415]},"properties":{"name":"KFC","brand":"kfc","code_commune":"92078","nom_commune":"Villeneuve-la-Garenne","provenance":"osm_brand","match_confidence":"osm_brand","opening_date":null}},{"type":"Feature","geometry":{"type":"Point","coordinates":[2.3920379,48.7850814]},"properties":{"name":"Chicken Spot","brand":"chicken_autre","code_commune":"94081","nom_commune":"Vitry-sur-Seine","provenance":"osm_brand","match_confidence":"osm_brand","opening_date":null}},{"type":"Feature","geometry":{"type":"Point","coordinates":[2.3919713,48.7849642]},"properties":{"name":"KFC","brand":"kfc","code_commune":"94081","nom_commune":"Vitry-sur-Seine","provenance":"osm_brand","match_confidence":"osm_brand","opening_date":null}},{"type":"Feature","geometry":{"type":"Point","coordinates":[2.4869926,48.8543634]},"properties":{"name":"KFC","brand":"kfc","code_commune":"94033","nom_commune":"Fontenay-sous-Bois","provenance":"osm_brand","match_confidence":"osm_brand","opening_date":null}},{"type":"Feature","geometry":{"type":"Point","coordinates":[2.334346,48.9127307]},"properties":{"name":"Master Poulet","brand":"master_poulet","code_commune":"93070","nom_commune":"Saint-Ouen-sur-Seine","provenance":"osm_brand","match_confidence":"osm_brand","opening_date":null}}]}